{
    "206": {
        "countryID": 106,
        "name": "",
        "englishName": null,
        "coordinates": {
            "lon": -1,
            "lat": -1
        }
    },
    "286": {
        "countryID": 106,
        "name": "אבו גוש",
        "englishName": "abu gosh",
        "coordinates": {
            "lon": "35.109346",
            "lat": "31.806651"
        }
    },
    "295": {
        "countryID": 106,
        "name": "אבטין",
        "englishName": "Ibtin",
        "coordinates": {
            "lon": "35.111914",
            "lat": "32.761411"
        }
    },
    "297": {
        "countryID": 106,
        "name": "אביאל",
        "englishName": "Aviel",
        "coordinates": {
            "lon": "34.993818",
            "lat": "32.532639"
        }
    },
    "298": {
        "countryID": 106,
        "name": "אביבים",
        "englishName": "Avivim",
        "coordinates": {
            "lon": "35.470920",
            "lat": "33.089249"
        }
    },
    "299": {
        "countryID": 106,
        "name": "אביגדור",
        "englishName": "Avigdor",
        "coordinates": {
            "lon": "34.745272",
            "lat": "31.710392"
        }
    },
    "300": {
        "countryID": 106,
        "name": "אביחיל",
        "englishName": "Avihail",
        "coordinates": {
            "lon": "34.870265",
            "lat": "32.349694"
        }
    },
    "301": {
        "countryID": 106,
        "name": "אביטל",
        "englishName": "Avital",
        "coordinates": {
            "lon": "35.306754",
            "lat": "32.558180"
        }
    },
    "303": {
        "countryID": 106,
        "name": "אבירים",
        "englishName": "Abirim",
        "coordinates": {
            "lon": "35.287656",
            "lat": "33.040002"
        }
    },
    "304": {
        "countryID": 106,
        "name": "אבן יהודה",
        "englishName": "Even Yehuda",
        "coordinates": {
            "lon": "34.886464",
            "lat": "32.270389"
        }
    },
    "305": {
        "countryID": 106,
        "name": "גלעד %28אבן יצחק%29",
        "englishName": "Gilad %28Even Yitzhak%29",
        "coordinates": {
            "lon": "35.074303",
            "lat": "32.558699"
        }
    },
    "306": {
        "countryID": 106,
        "name": "אבן מנחם",
        "englishName": "Even Menachem",
        "coordinates": {
            "lon": "35.295126",
            "lat": "33.074795"
        }
    },
    "307": {
        "countryID": 106,
        "name": "אבן ספיר",
        "englishName": "Even Sapir",
        "coordinates": {
            "lon": "35.132748",
            "lat": "31.763128"
        }
    },
    "308": {
        "countryID": 106,
        "name": "אבן שמואל",
        "englishName": "Even Shmuel",
        "coordinates": {
            "lon": "34.765342",
            "lat": "31.573726"
        }
    },
    "310": {
        "countryID": 106,
        "name": "אבני חפץ",
        "englishName": "Avney Hefets",
        "coordinates": {
            "lon": "35.074301",
            "lat": "32.286591"
        }
    },
    "315": {
        "countryID": 106,
        "name": "אדרת",
        "englishName": "Aderet",
        "coordinates": {
            "lon": "34.994873",
            "lat": "31.660873"
        }
    },
    "316": {
        "countryID": 106,
        "name": "אודים",
        "englishName": "Udim",
        "coordinates": {
            "lon": "34.846299",
            "lat": "32.264156"
        }
    },
    "320": {
        "countryID": 106,
        "name": "אום אל-פחם",
        "englishName": "Um El-Fachem",
        "coordinates": {
            "lon": "35.152144",
            "lat": "32.521540"
        }
    },
    "321": {
        "countryID": 106,
        "name": "אום אל-קוטוף",
        "englishName": "Um El-Kutuf",
        "coordinates": {
            "lon": "35.056530",
            "lat": "32.466614"
        }
    },
    "322": {
        "countryID": 106,
        "name": "אום בטין",
        "englishName": "Umm Batin",
        "coordinates": {
            "lon": "34.879481",
            "lat": "31.271479"
        }
    },
    "323": {
        "countryID": 106,
        "name": "אומן",
        "englishName": "Omen",
        "coordinates": {
            "lon": "35.244337",
            "lat": "32.564257"
        }
    },
    "324": {
        "countryID": 106,
        "name": "אומץ",
        "englishName": "Ometz",
        "coordinates": {
            "lon": "34.995321",
            "lat": "32.371110"
        }
    },
    "325": {
        "countryID": 106,
        "name": "אופקים",
        "englishName": "Ofakim",
        "coordinates": {
            "lon": "34.623077",
            "lat": "31.306032"
        }
    },
    "328": {
        "countryID": 106,
        "name": "אור יהודה",
        "englishName": "Or Yehuda",
        "coordinates": {
            "lon": "34.857682",
            "lat": "32.028626"
        }
    },
    "329": {
        "countryID": 106,
        "name": "אור עקיבא",
        "englishName": "Or Akiva",
        "coordinates": {
            "lon": "34.921160",
            "lat": "32.505624"
        }
    },
    "330": {
        "countryID": 106,
        "name": "אורה",
        "englishName": "Ora",
        "coordinates": {
            "lon": "35.153624",
            "lat": "31.753204"
        }
    },
    "331": {
        "countryID": 106,
        "name": "אורות",
        "englishName": "Orot",
        "coordinates": {
            "lon": "34.734805",
            "lat": "31.739748"
        }
    },
    "335": {
        "countryID": 106,
        "name": "אורנית",
        "englishName": "Oranit",
        "coordinates": {
            "lon": "34.992709",
            "lat": "32.130579"
        }
    },
    "337": {
        "countryID": 106,
        "name": "אזור",
        "englishName": "Azur",
        "coordinates": {
            "lon": "34.805850",
            "lat": "32.024609"
        }
    },
    "340": {
        "countryID": 106,
        "name": "אחוזת ברק",
        "englishName": "Ahuzat Barak",
        "coordinates": {
            "lon": "35.337507",
            "lat": "32.643770"
        }
    },
    "342": {
        "countryID": 106,
        "name": "אחיטוב",
        "englishName": "Ahituv",
        "coordinates": {
            "lon": "34.991052",
            "lat": "32.387119"
        }
    },
    "343": {
        "countryID": 106,
        "name": "אחיסמך",
        "englishName": "Ahisamakh",
        "coordinates": {
            "lon": "34.907680",
            "lat": "31.936197"
        }
    },
    "347": {
        "countryID": 106,
        "name": "אייל",
        "englishName": "Eyal",
        "coordinates": {
            "lon": "34.979944",
            "lat": "32.210995"
        }
    },
    "350": {
        "countryID": 106,
        "name": "אילות",
        "englishName": "Eilot",
        "coordinates": {
            "lon": "34.963459",
            "lat": "29.581031"
        }
    },
    "352": {
        "countryID": 106,
        "name": "אילת",
        "englishName": "Eilat",
        "coordinates": {
            "lon": "34.944238",
            "lat": "29.554495"
        }
    },
    "353": {
        "countryID": 106,
        "name": "איתמר",
        "englishName": "Itamar",
        "coordinates": {
            "lon": "35.314111",
            "lat": "32.170093"
        }
    },
    "354": {
        "countryID": 106,
        "name": "איתן",
        "englishName": "Eitan",
        "coordinates": {
            "lon": "34.748055",
            "lat": "31.570737"
        }
    },
    "356": {
        "countryID": 106,
        "name": "אכסאל",
        "englishName": "Iksal",
        "coordinates": {
            "lon": "35.322697",
            "lat": "32.680925"
        }
    },
    "360": {
        "countryID": 106,
        "name": "אלומה",
        "englishName": "Aluma",
        "coordinates": {
            "lon": "34.742363",
            "lat": "31.651658"
        }
    },
    "362": {
        "countryID": 106,
        "name": "אלון הגליל",
        "englishName": "Alon Hagalil",
        "coordinates": {
            "lon": "35.218608",
            "lat": "32.756725"
        }
    },
    "364": {
        "countryID": 106,
        "name": "אלון שבות",
        "englishName": "Alon Shvut",
        "coordinates": {
            "lon": "35.125939",
            "lat": "31.656570"
        }
    },
    "367": {
        "countryID": 106,
        "name": "אלוני יצחק",
        "englishName": "Aloney Yitshak",
        "coordinates": {
            "lon": "35.004821",
            "lat": "32.510925"
        }
    },
    "368": {
        "countryID": 106,
        "name": "אלונים",
        "englishName": "Alonim",
        "coordinates": {
            "lon": "35.143433",
            "lat": "32.720107"
        }
    },
    "369": {
        "countryID": 106,
        "name": "אלי-עד",
        "englishName": "Eli-Ad",
        "coordinates": {
            "lon": "35.734530",
            "lat": "32.804715"
        }
    },
    "370": {
        "countryID": 106,
        "name": "אליכין",
        "englishName": "Elyakhin",
        "coordinates": {
            "lon": "34.923303",
            "lat": "32.407944"
        }
    },
    "372": {
        "countryID": 106,
        "name": "אליפלט",
        "englishName": "elifelet",
        "coordinates": {
            "lon": "35.548949",
            "lat": "32.946830"
        }
    },
    "374": {
        "countryID": 106,
        "name": "אלישיב",
        "englishName": "Alyashiv",
        "coordinates": {
            "lon": "34.910339",
            "lat": "32.382330"
        }
    },
    "375": {
        "countryID": 106,
        "name": "אלישמע",
        "englishName": "Elishema",
        "coordinates": {
            "lon": "34.928151",
            "lat": "32.151298"
        }
    },
    "377": {
        "countryID": 106,
        "name": "אלמוג",
        "englishName": "Almog",
        "coordinates": {
            "lon": "35.461503",
            "lat": "31.789204"
        }
    },
    "379": {
        "countryID": 106,
        "name": "אלעזר",
        "englishName": "Elazar",
        "coordinates": {
            "lon": "35.141490",
            "lat": "31.661308"
        }
    },
    "381": {
        "countryID": 106,
        "name": "אלקוש",
        "englishName": "Elkosh",
        "coordinates": {
            "lon": "35.323290",
            "lat": "33.033845"
        }
    },
    "382": {
        "countryID": 106,
        "name": "אלקנה",
        "englishName": "Elkana",
        "coordinates": {
            "lon": "35.036277",
            "lat": "32.111856"
        }
    },
    "384": {
        "countryID": 106,
        "name": "אמירים",
        "englishName": "Amirim",
        "coordinates": {
            "lon": "35.450979",
            "lat": "32.937688"
        }
    },
    "386": {
        "countryID": 106,
        "name": "אמציה",
        "englishName": "Amatsya",
        "coordinates": {
            "lon": "34.913977",
            "lat": "31.532043"
        }
    },
    "387": {
        "countryID": 106,
        "name": "אניעם",
        "englishName": "aniam",
        "coordinates": {
            "lon": "35.739937",
            "lat": "32.957627"
        }
    },
    "389": {
        "countryID": 106,
        "name": "מיצד",
        "englishName": "",
        "coordinates": {
            "lon": "35.188322",
            "lat": "31.586095"
        }
    },
    "390": {
        "countryID": 106,
        "name": "אעבלין",
        "englishName": "Iblin",
        "coordinates": {
            "lon": "35.191199",
            "lat": "32.824301"
        }
    },
    "396": {
        "countryID": 106,
        "name": "אפק",
        "englishName": "Afek",
        "coordinates": {
            "lon": "35.127640",
            "lat": "32.840750"
        }
    },
    "397": {
        "countryID": 106,
        "name": "אפרת",
        "englishName": "Efrat",
        "coordinates": {
            "lon": "35.159553",
            "lat": "31.666578"
        }
    },
    "399": {
        "countryID": 106,
        "name": "ארגמן",
        "englishName": "Argaman",
        "coordinates": {
            "lon": "35.522930",
            "lat": "32.172373"
        }
    },
    "400": {
        "countryID": 106,
        "name": "ארז",
        "englishName": "Erez",
        "coordinates": {
            "lon": "34.566312",
            "lat": "31.560792"
        }
    },
    "401": {
        "countryID": 106,
        "name": "אריאל",
        "englishName": "Ariel",
        "coordinates": {
            "lon": "35.187560",
            "lat": "32.103685"
        }
    },
    "402": {
        "countryID": 106,
        "name": "ארסוף",
        "englishName": "Arsuf",
        "coordinates": {
            "lon": "34.817214",
            "lat": "32.214786"
        }
    },
    "403": {
        "countryID": 106,
        "name": "אשבול",
        "englishName": "Eshbol",
        "coordinates": {
            "lon": "34.663689",
            "lat": "31.450187"
        }
    },
    "405": {
        "countryID": 106,
        "name": "אשדוד",
        "englishName": "Ashdod",
        "coordinates": {
            "lon": "34.649219",
            "lat": "31.793010"
        }
    },
    "408": {
        "countryID": 106,
        "name": "אשחר",
        "englishName": "Eshchar",
        "coordinates": {
            "lon": "35.300403",
            "lat": "32.884890"
        }
    },
    "412": {
        "countryID": 106,
        "name": "אשקלון",
        "englishName": "Ashkelon",
        "coordinates": {
            "lon": "34.575075",
            "lat": "31.669092"
        }
    },
    "414": {
        "countryID": 106,
        "name": "אשתאול",
        "englishName": "Eshtaol",
        "coordinates": {
            "lon": "35.010111",
            "lat": "31.781302"
        }
    },
    "418": {
        "countryID": 106,
        "name": "ביר הדאג%27",
        "englishName": null,
        "coordinates": {
            "lon": "34.708378",
            "lat": "31.021860"
        }
    },
    "419": {
        "countryID": 106,
        "name": "באר טוביה",
        "englishName": "Beer Tuvia",
        "coordinates": {
            "lon": "34.724407",
            "lat": "31.733094"
        }
    },
    "420": {
        "countryID": 106,
        "name": "באר יעקב",
        "englishName": "Be%27Er Yaakov",
        "coordinates": {
            "lon": "34.834626",
            "lat": "31.939490"
        }
    },
    "421": {
        "countryID": 106,
        "name": "באר שבע",
        "englishName": "Beer Sheva",
        "coordinates": {
            "lon": "34.791252",
            "lat": "31.251918"
        }
    },
    "422": {
        "countryID": 106,
        "name": "בארות יצחק",
        "englishName": "Beerot Yitshak",
        "coordinates": {
            "lon": "34.910429",
            "lat": "32.042445"
        }
    },
    "423": {
        "countryID": 106,
        "name": "בארותיים",
        "englishName": "Beerotayim",
        "coordinates": {
            "lon": "34.978702",
            "lat": "32.322444"
        }
    },
    "424": {
        "countryID": 106,
        "name": "בארי",
        "englishName": "Be%27Eri",
        "coordinates": {
            "lon": "34.489785",
            "lat": "31.425337"
        }
    },
    "425": {
        "countryID": 106,
        "name": "בוסתן הגליל",
        "englishName": "Bustan Hagalil",
        "coordinates": {
            "lon": "35.083961",
            "lat": "32.952241"
        }
    },
    "428": {
        "countryID": 106,
        "name": "בורגתה",
        "englishName": "Burgata",
        "coordinates": {
            "lon": "34.963844",
            "lat": "32.325568"
        }
    },
    "430": {
        "countryID": 106,
        "name": "בטחה",
        "englishName": "Bitcha",
        "coordinates": {
            "lon": "34.632716",
            "lat": "31.333957"
        }
    },
    "431": {
        "countryID": 106,
        "name": "ביצרון",
        "englishName": "Bitzaron",
        "coordinates": {
            "lon": "34.727424",
            "lat": "31.793973"
        }
    },
    "432": {
        "countryID": 106,
        "name": "ביר אל-מכסור",
        "englishName": "Bir Al-Maksur",
        "coordinates": {
            "lon": "35.221707",
            "lat": "32.779601"
        }
    },
    "434": {
        "countryID": 106,
        "name": "בית אורן",
        "englishName": "Beit Oren",
        "coordinates": {
            "lon": "35.005342",
            "lat": "32.731204"
        }
    },
    "435": {
        "countryID": 106,
        "name": "בית אל",
        "englishName": "beit el",
        "coordinates": {
            "lon": "35.222953",
            "lat": "31.940130"
        }
    },
    "437": {
        "countryID": 106,
        "name": "בית אלפא",
        "englishName": "Beit Alpha",
        "coordinates": {
            "lon": "35.431203",
            "lat": "32.516798"
        }
    },
    "438": {
        "countryID": 106,
        "name": "בית אריה",
        "englishName": "Beit Arie",
        "coordinates": {
            "lon": "35.049027",
            "lat": "32.037334"
        }
    },
    "440": {
        "countryID": 106,
        "name": "בית ג%27ן",
        "englishName": "Beit Jan",
        "coordinates": {
            "lon": "35.377523",
            "lat": "32.965111"
        }
    },
    "442": {
        "countryID": 106,
        "name": "בית גמליאל",
        "englishName": "Beit Gamliel",
        "coordinates": {
            "lon": "34.758745",
            "lat": "31.859188"
        }
    },
    "443": {
        "countryID": 106,
        "name": "בית דגן",
        "englishName": "Beit Dagan",
        "coordinates": {
            "lon": "34.829658",
            "lat": "32.001323"
        }
    },
    "449": {
        "countryID": 106,
        "name": "בית השיטה",
        "englishName": "Beit Hashita",
        "coordinates": {
            "lon": "35.439175",
            "lat": "32.551877"
        }
    },
    "452": {
        "countryID": 106,
        "name": "בית זרע",
        "englishName": "Beit Zera",
        "coordinates": {
            "lon": "35.572448",
            "lat": "32.687684"
        }
    },
    "453": {
        "countryID": 106,
        "name": "בית חורון",
        "englishName": "Beit Horon",
        "coordinates": {
            "lon": "35.126707",
            "lat": "31.877693"
        }
    },
    "454": {
        "countryID": 106,
        "name": "בית חלקיה",
        "englishName": "Beit Halakiya",
        "coordinates": {
            "lon": "34.811317",
            "lat": "31.792904"
        }
    },
    "455": {
        "countryID": 106,
        "name": "בית חנן",
        "englishName": "Beit Hanan",
        "coordinates": {
            "lon": "34.771178",
            "lat": "31.933300"
        }
    },
    "457": {
        "countryID": 106,
        "name": "בית חירות",
        "englishName": "Beit Herut",
        "coordinates": {
            "lon": "34.869705",
            "lat": "32.377791"
        }
    },
    "459": {
        "countryID": 106,
        "name": "בית יהושע",
        "englishName": "Beit Yehosua",
        "coordinates": {
            "lon": "34.860576",
            "lat": "32.262407"
        }
    },
    "461": {
        "countryID": 106,
        "name": "בית ינאי",
        "englishName": "beit yanai",
        "coordinates": {
            "lon": "34.863060",
            "lat": "32.376571"
        }
    },
    "462": {
        "countryID": 106,
        "name": "בית יצחק-שער חפר",
        "englishName": "Beit Itzhak-Sha%27Ar Hefer",
        "coordinates": {
            "lon": "34.890591",
            "lat": "32.333246"
        }
    },
    "463": {
        "countryID": 106,
        "name": "בית לחם הגלילית",
        "englishName": "Beit Lahem Haglilit",
        "coordinates": {
            "lon": "35.190047",
            "lat": "32.735457"
        }
    },
    "467": {
        "countryID": 106,
        "name": "בית נקופה",
        "englishName": "Beit Nekufa",
        "coordinates": {
            "lon": "35.125455",
            "lat": "31.802779"
        }
    },
    "468": {
        "countryID": 106,
        "name": "בית עובד",
        "englishName": "Beit Oved",
        "coordinates": {
            "lon": "34.771824",
            "lat": "31.921752"
        }
    },
    "473": {
        "countryID": 106,
        "name": "בית קמה",
        "englishName": "Beit Kama",
        "coordinates": {
            "lon": "34.761006",
            "lat": "31.448462"
        }
    },
    "475": {
        "countryID": 106,
        "name": "בית רבן",
        "englishName": "Beit Raban",
        "coordinates": {
            "lon": "34.730136",
            "lat": "31.817464"
        }
    },
    "476": {
        "countryID": 106,
        "name": "בית רימון",
        "englishName": "Beit Rimon",
        "coordinates": {
            "lon": "35.329161",
            "lat": "32.781311"
        }
    },
    "477": {
        "countryID": 106,
        "name": "בית שאן",
        "englishName": "Beit She%27An",
        "coordinates": {
            "lon": "35.497685",
            "lat": "32.496351"
        }
    },
    "478": {
        "countryID": 106,
        "name": "בית שמש",
        "englishName": "BEIT SHEMESH",
        "coordinates": {
            "lon": "34.988697",
            "lat": "31.719706"
        }
    },
    "481": {
        "countryID": 106,
        "name": "ביתן אהרן",
        "englishName": "Beit Aharon",
        "coordinates": {
            "lon": "34.869656",
            "lat": "32.361629"
        }
    },
    "483": {
        "countryID": 106,
        "name": "בלפוריה",
        "englishName": "Balfouria",
        "coordinates": {
            "lon": "35.294528",
            "lat": "32.629940"
        }
    },
    "484": {
        "countryID": 106,
        "name": "בן זכאי",
        "englishName": "Ben Zakai",
        "coordinates": {
            "lon": "34.728505",
            "lat": "31.856239"
        }
    },
    "485": {
        "countryID": 106,
        "name": "בן עמי",
        "englishName": "Ben Ami",
        "coordinates": {
            "lon": "35.122954",
            "lat": "33.004625"
        }
    },
    "486": {
        "countryID": 106,
        "name": "בן שמן %28כפר נוער%29",
        "englishName": "Ben Shemen %28Kefar No%27Ar%29",
        "coordinates": {
            "lon": "34.928212",
            "lat": "31.959359"
        }
    },
    "487": {
        "countryID": 106,
        "name": "בן שמן %28מושב%29",
        "englishName": "Ben Shemen %28Moshav%29",
        "coordinates": {
            "lon": "34.921992",
            "lat": "31.953007"
        }
    },
    "488": {
        "countryID": 106,
        "name": "כרם בן שמן",
        "englishName": "Kerem Ben Shemen",
        "coordinates": {
            "lon": "34.933756",
            "lat": "31.958506"
        }
    },
    "489": {
        "countryID": 106,
        "name": "בני ברק",
        "englishName": "Bnei Brak",
        "coordinates": {
            "lon": "34.834404",
            "lat": "32.088467"
        }
    },
    "490": {
        "countryID": 106,
        "name": "בני דרום",
        "englishName": "Bnei Darom",
        "coordinates": {
            "lon": "34.692346",
            "lat": "31.820547"
        }
    },
    "491": {
        "countryID": 106,
        "name": "בני דרור",
        "englishName": "Bnei Dror",
        "coordinates": {
            "lon": "34.897124",
            "lat": "32.261291"
        }
    },
    "492": {
        "countryID": 106,
        "name": "בני יהודה",
        "englishName": "Bnei Yehuda",
        "coordinates": {
            "lon": "35.689830",
            "lat": "32.798724"
        }
    },
    "493": {
        "countryID": 106,
        "name": "בני עטרות",
        "englishName": "Bney Atarot",
        "coordinates": {
            "lon": "34.913396",
            "lat": "32.025218"
        }
    },
    "495": {
        "countryID": 106,
        "name": "בני ציון",
        "englishName": "Bnei Zion",
        "coordinates": {
            "lon": "34.867937",
            "lat": "32.218521"
        }
    },
    "496": {
        "countryID": 106,
        "name": "בני ראם",
        "englishName": "bnei ram",
        "coordinates": {
            "lon": "34.790912",
            "lat": "31.772762"
        }
    },
    "498": {
        "countryID": 106,
        "name": "בנימינה-גבעת עדה",
        "englishName": "Binyamina",
        "coordinates": {
            "lon": "34.948743",
            "lat": "32.519978"
        }
    },
    "500": {
        "countryID": 106,
        "name": "בסמת טבעון",
        "englishName": "Basmat Tab%27Un",
        "coordinates": {
            "lon": "35.152486",
            "lat": "32.737457"
        }
    },
    "501": {
        "countryID": 106,
        "name": "בענה",
        "englishName": "Ba%27Ana",
        "coordinates": {
            "lon": "35.274978",
            "lat": "32.927885"
        }
    },
    "502": {
        "countryID": 106,
        "name": "בצרה",
        "englishName": "Batzra",
        "coordinates": {
            "lon": "34.878076",
            "lat": "32.213260"
        }
    },
    "503": {
        "countryID": 106,
        "name": "בצת",
        "englishName": "Betzet",
        "coordinates": {
            "lon": "35.132734",
            "lat": "33.071381"
        }
    },
    "504": {
        "countryID": 106,
        "name": "בקוע",
        "englishName": "Beko%27a",
        "coordinates": {
            "lon": "34.927250",
            "lat": "31.827066"
        }
    },
    "505": {
        "countryID": 106,
        "name": "בקעות",
        "englishName": "Beka%27Ot",
        "coordinates": {
            "lon": "35.453447",
            "lat": "32.242745"
        }
    },
    "508": {
        "countryID": 106,
        "name": "בר יוחאי",
        "englishName": "Bar Yochai",
        "coordinates": {
            "lon": "35.448104",
            "lat": "32.997759"
        }
    },
    "509": {
        "countryID": 106,
        "name": "ברור חיל",
        "englishName": "Bror Hayil",
        "coordinates": {
            "lon": "34.647057",
            "lat": "31.557789"
        }
    },
    "510": {
        "countryID": 106,
        "name": "ברוש",
        "englishName": "Brosh",
        "coordinates": {
            "lon": "34.634736",
            "lat": "31.370681"
        }
    },
    "511": {
        "countryID": 106,
        "name": "ברכה",
        "englishName": "Bracha",
        "coordinates": {
            "lon": "35.264953",
            "lat": "32.192405"
        }
    },
    "515": {
        "countryID": 106,
        "name": "ברק",
        "englishName": "Barak",
        "coordinates": {
            "lon": "35.265268",
            "lat": "32.543287"
        }
    },
    "517": {
        "countryID": 106,
        "name": "ברקן",
        "englishName": "Barkan",
        "coordinates": {
            "lon": "35.109827",
            "lat": "32.107797"
        }
    },
    "518": {
        "countryID": 106,
        "name": "ברקת",
        "englishName": "bareket",
        "coordinates": {
            "lon": "34.944556",
            "lat": "32.016601"
        }
    },
    "519": {
        "countryID": 106,
        "name": "בת הדר",
        "englishName": "Bat Hadar",
        "coordinates": {
            "lon": "34.595336",
            "lat": "31.645687"
        }
    },
    "522": {
        "countryID": 106,
        "name": "בת ים",
        "englishName": "Bat Yam",
        "coordinates": {
            "lon": "34.748625",
            "lat": "32.016370"
        }
    },
    "523": {
        "countryID": 106,
        "name": "בת עין",
        "englishName": "Bat Ayin",
        "coordinates": {
            "lon": "35.099231",
            "lat": "31.659066"
        }
    },
    "525": {
        "countryID": 106,
        "name": "ג%27דיידה-מכר",
        "englishName": null,
        "coordinates": {
            "lon": "35.147327",
            "lat": "32.928489"
        }
    },
    "526": {
        "countryID": 106,
        "name": "ג%27ולס",
        "englishName": "Julis",
        "coordinates": {
            "lon": "35.183190",
            "lat": "32.942026"
        }
    },
    "527": {
        "countryID": 106,
        "name": "ג%27לג%27וליה",
        "englishName": null,
        "coordinates": {
            "lon": "34.955925",
            "lat": "32.152702"
        }
    },
    "530": {
        "countryID": 106,
        "name": "ג%27ש %28גוש חלב%29",
        "englishName": null,
        "coordinates": {
            "lon": "35.446442",
            "lat": "33.023145"
        }
    },
    "531": {
        "countryID": 106,
        "name": "ג%27ת",
        "englishName": "Old Mosque",
        "coordinates": {
            "lon": "35.038681",
            "lat": "32.398947"
        }
    },
    "533": {
        "countryID": 106,
        "name": "גאולים",
        "englishName": "Ge%27Ulim",
        "coordinates": {
            "lon": "34.947414",
            "lat": "32.295892"
        }
    },
    "535": {
        "countryID": 106,
        "name": "גבולות",
        "englishName": "Gvulot",
        "coordinates": {
            "lon": "34.465233",
            "lat": "31.210022"
        }
    },
    "536": {
        "countryID": 106,
        "name": "גבים",
        "englishName": "Gevim",
        "coordinates": {
            "lon": "34.598333",
            "lat": "31.505636"
        }
    },
    "537": {
        "countryID": 106,
        "name": "גבע",
        "englishName": "Geva",
        "coordinates": {
            "lon": "35.371897",
            "lat": "32.568012"
        }
    },
    "538": {
        "countryID": 106,
        "name": "גבע בנימין",
        "englishName": "Geva Binyamin",
        "coordinates": {
            "lon": "35.271758",
            "lat": "31.851437"
        }
    },
    "540": {
        "countryID": 106,
        "name": "גבעולים",
        "englishName": "Givolim",
        "coordinates": {
            "lon": "34.590988",
            "lat": "31.395992"
        }
    },
    "541": {
        "countryID": 106,
        "name": "גבעון החדשה",
        "englishName": "Giv%27On Hahadasha",
        "coordinates": {
            "lon": "35.159130",
            "lat": "31.847704"
        }
    },
    "543": {
        "countryID": 106,
        "name": "גבעת אבני",
        "englishName": "Givat Avni",
        "coordinates": {
            "lon": "35.437207",
            "lat": "32.774397"
        }
    },
    "545": {
        "countryID": 106,
        "name": "גבעת ברנר",
        "englishName": "Givat Brenner",
        "coordinates": {
            "lon": "34.801188",
            "lat": "31.866647"
        }
    },
    "547": {
        "countryID": 106,
        "name": "גבעת זאב",
        "englishName": "Giv%27at Ze%27ev",
        "coordinates": {
            "lon": "35.167109",
            "lat": "31.863144"
        }
    },
    "548": {
        "countryID": 106,
        "name": "גבעת ח\"ן",
        "englishName": "Givat Hen",
        "coordinates": {
            "lon": "34.875088",
            "lat": "32.167345"
        }
    },
    "551": {
        "countryID": 106,
        "name": "גבעת יואב",
        "englishName": "Givat Yoav",
        "coordinates": {
            "lon": "35.681181",
            "lat": "32.797955"
        }
    },
    "552": {
        "countryID": 106,
        "name": "גבעת יערים",
        "englishName": "Giv%27at Ye%27arim",
        "coordinates": {
            "lon": "35.090136",
            "lat": "31.787445"
        }
    },
    "553": {
        "countryID": 106,
        "name": "גבעת ישעיהו",
        "englishName": "Givat Yeshayahu",
        "coordinates": {
            "lon": "34.950095",
            "lat": "31.669873"
        }
    },
    "554": {
        "countryID": 106,
        "name": "גבעת כ\"ח",
        "englishName": "Givat Ko%27Ah",
        "coordinates": {
            "lon": "34.934839",
            "lat": "32.028346"
        }
    },
    "555": {
        "countryID": 106,
        "name": "גבעת ניל\"י",
        "englishName": "Givat Nili",
        "coordinates": {
            "lon": "35.038518",
            "lat": "32.547901"
        }
    },
    "557": {
        "countryID": 106,
        "name": "גבעת עוז",
        "englishName": "Givat Oz",
        "coordinates": {
            "lon": "35.200153",
            "lat": "32.556097"
        }
    },
    "558": {
        "countryID": 106,
        "name": "גבעת שמואל",
        "englishName": "Givat Shmuel",
        "coordinates": {
            "lon": "34.850489",
            "lat": "32.076720"
        }
    },
    "560": {
        "countryID": 106,
        "name": "גבעת שפירא",
        "englishName": "Givat Shapira",
        "coordinates": {
            "lon": "34.876206",
            "lat": "32.358105"
        }
    },
    "562": {
        "countryID": 106,
        "name": "גבעתיים",
        "englishName": "Givataaim",
        "coordinates": {
            "lon": "34.809861",
            "lat": "32.070215"
        }
    },
    "564": {
        "countryID": 106,
        "name": "גבת",
        "englishName": "Gvat",
        "coordinates": {
            "lon": "35.212432",
            "lat": "32.675816"
        }
    },
    "565": {
        "countryID": 106,
        "name": "גדות",
        "englishName": "Gadot",
        "coordinates": {
            "lon": "35.619544",
            "lat": "33.017900"
        }
    },
    "566": {
        "countryID": 106,
        "name": "גדיש",
        "englishName": "gadish",
        "coordinates": {
            "lon": "35.243840",
            "lat": "32.558420"
        }
    },
    "568": {
        "countryID": 106,
        "name": "גדרה",
        "englishName": "Gedera",
        "coordinates": {
            "lon": "34.781513",
            "lat": "31.808542"
        }
    },
    "569": {
        "countryID": 106,
        "name": "גונן",
        "englishName": "Gonen",
        "coordinates": {
            "lon": "35.646903",
            "lat": "33.124183"
        }
    },
    "570": {
        "countryID": 106,
        "name": "גורן",
        "englishName": "Goren",
        "coordinates": {
            "lon": "35.237359",
            "lat": "33.057959"
        }
    },
    "571": {
        "countryID": 106,
        "name": "גורנות הגליל",
        "englishName": "Gornot Hagalil",
        "coordinates": {
            "lon": "35.249030",
            "lat": "33.059974"
        }
    },
    "576": {
        "countryID": 106,
        "name": "גיבתון",
        "englishName": "Givton",
        "coordinates": {
            "lon": "34.800670",
            "lat": "31.888711"
        }
    },
    "579": {
        "countryID": 106,
        "name": "גילת",
        "englishName": "Gilat",
        "coordinates": {
            "lon": "34.652607",
            "lat": "31.329096"
        }
    },
    "582": {
        "countryID": 106,
        "name": "גינתון",
        "englishName": "Ginaton",
        "coordinates": {
            "lon": "34.914065",
            "lat": "31.964272"
        }
    },
    "586": {
        "countryID": 106,
        "name": "גלגל",
        "englishName": "Gilgal",
        "coordinates": {
            "lon": "35.446054",
            "lat": "31.998946"
        }
    },
    "588": {
        "countryID": 106,
        "name": "גמזו",
        "englishName": "Gimzo",
        "coordinates": {
            "lon": "34.944951",
            "lat": "31.927855"
        }
    },
    "589": {
        "countryID": 106,
        "name": "גן הדרום",
        "englishName": "Gan Hadarom",
        "coordinates": {
            "lon": "34.700893",
            "lat": "31.803403"
        }
    },
    "590": {
        "countryID": 106,
        "name": "גן השומרון",
        "englishName": "Gan Hashomron",
        "coordinates": {
            "lon": "34.997954",
            "lat": "32.462959"
        }
    },
    "593": {
        "countryID": 106,
        "name": "גן יבנה",
        "englishName": "gan yavne",
        "coordinates": {
            "lon": "34.706012",
            "lat": "31.791034"
        }
    },
    "594": {
        "countryID": 106,
        "name": "גן נר",
        "englishName": "Gan Ner",
        "coordinates": {
            "lon": "35.337968",
            "lat": "32.530954"
        }
    },
    "595": {
        "countryID": 106,
        "name": "גן שורק",
        "englishName": "Gan Sorek",
        "coordinates": {
            "lon": "34.761131",
            "lat": "31.944719"
        }
    },
    "596": {
        "countryID": 106,
        "name": "גן שלמה",
        "englishName": "Gan Shlomo %28Shiler Group%29",
        "coordinates": {
            "lon": "34.798817",
            "lat": "31.876785"
        }
    },
    "598": {
        "countryID": 106,
        "name": "גנות",
        "englishName": "Ganot",
        "coordinates": {
            "lon": "34.827220",
            "lat": "32.018184"
        }
    },
    "602": {
        "countryID": 106,
        "name": "גני יוחנן",
        "englishName": "Ganei Yohanan",
        "coordinates": {
            "lon": "34.838282",
            "lat": "31.858025"
        }
    },
    "603": {
        "countryID": 106,
        "name": "גני עם",
        "englishName": "Ganei Am",
        "coordinates": {
            "lon": "34.903089",
            "lat": "32.149825"
        }
    },
    "604": {
        "countryID": 106,
        "name": "גני תקווה",
        "englishName": "Ganei Tikva",
        "coordinates": {
            "lon": "34.871962",
            "lat": "32.060705"
        }
    },
    "606": {
        "countryID": 106,
        "name": "געש",
        "englishName": "Ga%27Ash",
        "coordinates": {
            "lon": "34.826432",
            "lat": "32.227836"
        }
    },
    "607": {
        "countryID": 106,
        "name": "געתון",
        "englishName": "Ga%27Aton",
        "coordinates": {
            "lon": "35.215575",
            "lat": "33.006284"
        }
    },
    "610": {
        "countryID": 106,
        "name": "גשור",
        "englishName": "Gashor",
        "coordinates": {
            "lon": "35.716985",
            "lat": "32.818004"
        }
    },
    "611": {
        "countryID": 106,
        "name": "גשר",
        "englishName": "Gesher",
        "coordinates": {
            "lon": "35.552008",
            "lat": "32.620606"
        }
    },
    "613": {
        "countryID": 106,
        "name": "גת רימון",
        "englishName": "Gat Rimon",
        "coordinates": {
            "lon": "34.876024",
            "lat": "32.068509"
        }
    },
    "614": {
        "countryID": 106,
        "name": "גת %28קיבוץ%29",
        "englishName": "Gat",
        "coordinates": {
            "lon": "34.792660",
            "lat": "31.628041"
        }
    },
    "615": {
        "countryID": 106,
        "name": "דאלית אל-כרמל",
        "englishName": null,
        "coordinates": {
            "lon": "35.050357",
            "lat": "32.694227"
        }
    },
    "617": {
        "countryID": 106,
        "name": "דבוריה",
        "englishName": "Daburiyya",
        "coordinates": {
            "lon": "35.371106",
            "lat": "32.691926"
        }
    },
    "618": {
        "countryID": 106,
        "name": "דבירה",
        "englishName": "Dvir",
        "coordinates": {
            "lon": "34.822365",
            "lat": "31.413649"
        }
    },
    "621": {
        "countryID": 106,
        "name": "דגניה ב%27",
        "englishName": null,
        "coordinates": {
            "lon": "35.576929",
            "lat": "32.700656"
        }
    },
    "622": {
        "countryID": 106,
        "name": "דוב\"ב",
        "englishName": "dovev",
        "coordinates": {
            "lon": "35.407513",
            "lat": "33.053763"
        }
    },
    "623": {
        "countryID": 106,
        "name": "דולב",
        "englishName": "Dolev",
        "coordinates": {
            "lon": "35.134509",
            "lat": "31.926292"
        }
    },
    "624": {
        "countryID": 106,
        "name": "דור",
        "englishName": "Dor",
        "coordinates": {
            "lon": "34.923210",
            "lat": "32.607421"
        }
    },
    "625": {
        "countryID": 106,
        "name": "דורות",
        "englishName": "Dorot",
        "coordinates": {
            "lon": "34.645082",
            "lat": "31.506056"
        }
    },
    "627": {
        "countryID": 106,
        "name": "דייר אל-אסד",
        "englishName": "Dir El-Assad",
        "coordinates": {
            "lon": "35.267303",
            "lat": "32.935745"
        }
    },
    "630": {
        "countryID": 106,
        "name": "דימונה",
        "englishName": "dimona",
        "coordinates": {
            "lon": "35.034120",
            "lat": "31.068360"
        }
    },
    "631": {
        "countryID": 106,
        "name": "דישון",
        "englishName": "Dishon",
        "coordinates": {
            "lon": "35.519674",
            "lat": "33.083756"
        }
    },
    "632": {
        "countryID": 106,
        "name": "דליה",
        "englishName": "Dalia",
        "coordinates": {
            "lon": "35.072617",
            "lat": "32.588992"
        }
    },
    "633": {
        "countryID": 106,
        "name": "דלתון",
        "englishName": "Dalton",
        "coordinates": {
            "lon": "35.482497",
            "lat": "33.017758"
        }
    },
    "639": {
        "countryID": 106,
        "name": "האון",
        "englishName": "Ha%27On",
        "coordinates": {
            "lon": "35.622350",
            "lat": "32.725436"
        }
    },
    "642": {
        "countryID": 106,
        "name": "הדר עם",
        "englishName": "Hadar Am",
        "coordinates": {
            "lon": "34.901704",
            "lat": "32.347828"
        }
    },
    "643": {
        "countryID": 106,
        "name": "הוד השרון",
        "englishName": "Hod Hasharon",
        "coordinates": {
            "lon": "34.892913",
            "lat": "32.155870"
        }
    },
    "644": {
        "countryID": 106,
        "name": "הודיה",
        "englishName": "Hodaya",
        "coordinates": {
            "lon": "34.642037",
            "lat": "31.674942"
        }
    },
    "648": {
        "countryID": 106,
        "name": "הושעיה",
        "englishName": "Hoshaya",
        "coordinates": {
            "lon": "35.294048",
            "lat": "32.757825"
        }
    },
    "649": {
        "countryID": 106,
        "name": "הזורע",
        "englishName": "HaZore%27a",
        "coordinates": {
            "lon": "35.120517",
            "lat": "32.644988"
        }
    },
    "654": {
        "countryID": 106,
        "name": "המעפיל",
        "englishName": "Hama%27Apil",
        "coordinates": {
            "lon": "34.982398",
            "lat": "32.378540"
        }
    },
    "655": {
        "countryID": 106,
        "name": "הסוללים",
        "englishName": "Hasolelim",
        "coordinates": {
            "lon": "35.237500",
            "lat": "32.750786"
        }
    },
    "656": {
        "countryID": 106,
        "name": "העוגן",
        "englishName": "Ha%27Ogen",
        "coordinates": {
            "lon": "34.922063",
            "lat": "32.361606"
        }
    },
    "658": {
        "countryID": 106,
        "name": "הר גילה",
        "englishName": "Har Gilo",
        "coordinates": {
            "lon": "35.171111",
            "lat": "31.721399"
        }
    },
    "660": {
        "countryID": 106,
        "name": "הראל",
        "englishName": "Harel",
        "coordinates": {
            "lon": "34.949139",
            "lat": "31.810077"
        }
    },
    "662": {
        "countryID": 106,
        "name": "הרצליה",
        "englishName": "Herzliya",
        "coordinates": {
            "lon": "34.838549",
            "lat": "32.168304"
        }
    },
    "664": {
        "countryID": 106,
        "name": "ורד יריחו",
        "englishName": "Vered Yeriho",
        "coordinates": {
            "lon": "35.432061",
            "lat": "31.826171"
        }
    },
    "667": {
        "countryID": 106,
        "name": "זבדיאל",
        "englishName": "Zavdiel",
        "coordinates": {
            "lon": "34.758007",
            "lat": "31.658869"
        }
    },
    "668": {
        "countryID": 106,
        "name": "זוהר",
        "englishName": "Zohar",
        "coordinates": {
            "lon": "34.690926",
            "lat": "31.596385"
        }
    },
    "670": {
        "countryID": 106,
        "name": "זיתן",
        "englishName": "Zeitan",
        "coordinates": {
            "lon": "34.892867",
            "lat": "31.975958"
        }
    },
    "671": {
        "countryID": 106,
        "name": "זכרון יעקב",
        "englishName": "Zikhron Ya%27Akov",
        "coordinates": {
            "lon": "34.952113",
            "lat": "32.568774"
        }
    },
    "672": {
        "countryID": 106,
        "name": "זכריה",
        "englishName": "Zechariah",
        "coordinates": {
            "lon": "34.946273",
            "lat": "31.709451"
        }
    },
    "673": {
        "countryID": 106,
        "name": "זמר",
        "englishName": "Zemer",
        "coordinates": {
            "lon": "35.032282",
            "lat": "32.363291"
        }
    },
    "676": {
        "countryID": 106,
        "name": "זרועה",
        "englishName": "Zru%27A",
        "coordinates": {
            "lon": "34.624495",
            "lat": "31.459269"
        }
    },
    "678": {
        "countryID": 106,
        "name": "זרחיה",
        "englishName": "Zrahia",
        "coordinates": {
            "lon": "34.743965",
            "lat": "31.678661"
        }
    },
    "680": {
        "countryID": 106,
        "name": "חבצלת השרון",
        "englishName": "Havatzelet Hasharon",
        "coordinates": {
            "lon": "34.860546",
            "lat": "32.361677"
        }
    },
    "681": {
        "countryID": 106,
        "name": "חבר",
        "englishName": "Hever",
        "coordinates": {
            "lon": "35.263936",
            "lat": "32.547315"
        }
    },
    "686": {
        "countryID": 106,
        "name": "חדיד",
        "englishName": "Hadid",
        "coordinates": {
            "lon": "34.931691",
            "lat": "31.969429"
        }
    },
    "687": {
        "countryID": 106,
        "name": "חדרה",
        "englishName": "Hadera",
        "coordinates": {
            "lon": "34.918960",
            "lat": "32.434760"
        }
    },
    "689": {
        "countryID": 106,
        "name": "חולדה",
        "englishName": "hulda",
        "coordinates": {
            "lon": "34.883130",
            "lat": "31.831463"
        }
    },
    "690": {
        "countryID": 106,
        "name": "חולון",
        "englishName": "Holon",
        "coordinates": {
            "lon": "34.779301",
            "lat": "32.015301"
        }
    },
    "692": {
        "countryID": 106,
        "name": "חולתה",
        "englishName": "Hulta",
        "coordinates": {
            "lon": "35.610764",
            "lat": "33.050916"
        }
    },
    "696": {
        "countryID": 106,
        "name": "חופית",
        "englishName": "Hofit",
        "coordinates": {
            "lon": "34.874665",
            "lat": "32.385092"
        }
    },
    "697": {
        "countryID": 106,
        "name": "חוקוק",
        "englishName": "Hukok",
        "coordinates": {
            "lon": "35.495474",
            "lat": "32.881616"
        }
    },
    "698": {
        "countryID": 106,
        "name": "חורה",
        "englishName": "hura",
        "coordinates": {
            "lon": "34.934482",
            "lat": "31.300086"
        }
    },
    "699": {
        "countryID": 106,
        "name": "חורפיש",
        "englishName": "Hurfeish",
        "coordinates": {
            "lon": "35.347902",
            "lat": "33.017452"
        }
    },
    "701": {
        "countryID": 106,
        "name": "חזון",
        "englishName": "Hazon",
        "coordinates": {
            "lon": "35.396850",
            "lat": "32.905537"
        }
    },
    "703": {
        "countryID": 106,
        "name": "ח%27ואלד",
        "englishName": null,
        "coordinates": {
            "lon": "35.135712",
            "lat": "32.771656"
        }
    },
    "704": {
        "countryID": 106,
        "name": "חיננית",
        "englishName": "Hinanit",
        "coordinates": {
            "lon": "35.174624",
            "lat": "32.480697"
        }
    },
    "705": {
        "countryID": 106,
        "name": "חיפה",
        "englishName": "Haifa",
        "coordinates": {
            "lon": "35.005630",
            "lat": "32.804745"
        }
    },
    "707": {
        "countryID": 106,
        "name": "חלמיש",
        "englishName": "Halamish",
        "coordinates": {
            "lon": "35.125938",
            "lat": "32.005344"
        }
    },
    "708": {
        "countryID": 106,
        "name": "חלץ",
        "englishName": "heletz",
        "coordinates": {
            "lon": "34.657531",
            "lat": "31.577448"
        }
    },
    "710": {
        "countryID": 106,
        "name": "חמד",
        "englishName": "Hemed",
        "coordinates": {
            "lon": "34.838052",
            "lat": "32.019642"
        }
    },
    "711": {
        "countryID": 106,
        "name": "חמדיה",
        "englishName": "Hamadia",
        "coordinates": {
            "lon": "35.521227",
            "lat": "32.519471"
        }
    },
    "714": {
        "countryID": 106,
        "name": "חניתה",
        "englishName": "Hanita",
        "coordinates": {
            "lon": "35.172933",
            "lat": "33.087416"
        }
    },
    "715": {
        "countryID": 106,
        "name": "חנתון",
        "englishName": "Hanaton",
        "coordinates": {
            "lon": "35.244557",
            "lat": "32.783743"
        }
    },
    "717": {
        "countryID": 106,
        "name": "חפץ חיים",
        "englishName": "Hefetz Haim",
        "coordinates": {
            "lon": "34.800248",
            "lat": "31.788380"
        }
    },
    "718": {
        "countryID": 106,
        "name": "חפצי-בה",
        "englishName": "Heftzi-Ba",
        "coordinates": {
            "lon": "35.423927",
            "lat": "32.519268"
        }
    },
    "719": {
        "countryID": 106,
        "name": "חצב",
        "englishName": "Hatzav",
        "coordinates": {
            "lon": "34.768545",
            "lat": "31.782358"
        }
    },
    "722": {
        "countryID": 106,
        "name": "חצור הגלילית",
        "englishName": "Hatzor Haglilit",
        "coordinates": {
            "lon": "35.545179",
            "lat": "32.982245"
        }
    },
    "730": {
        "countryID": 106,
        "name": "חירות",
        "englishName": "Herut",
        "coordinates": {
            "lon": "34.913852",
            "lat": "32.239940"
        }
    },
    "731": {
        "countryID": 106,
        "name": "חרמש",
        "englishName": "Hermesh",
        "coordinates": {
            "lon": "35.119317",
            "lat": "32.423668"
        }
    },
    "734": {
        "countryID": 106,
        "name": "טבריה",
        "englishName": "Tiberias",
        "coordinates": {
            "lon": "35.526069",
            "lat": "32.786714"
        }
    },
    "735": {
        "countryID": 106,
        "name": "טובא-זנגריה",
        "englishName": "Tuba-Zangariya",
        "coordinates": {
            "lon": "35.592073",
            "lat": "32.965265"
        }
    },
    "736": {
        "countryID": 106,
        "name": "טורעאן",
        "englishName": "Tur%27an",
        "coordinates": {
            "lon": "35.373303",
            "lat": "32.776278"
        }
    },
    "737": {
        "countryID": 106,
        "name": "טייבה",
        "englishName": "Taybe",
        "coordinates": {
            "lon": "35.009455",
            "lat": "32.266079"
        }
    },
    "738": {
        "countryID": 106,
        "name": "טייבה %28בעמק%29",
        "englishName": "Taybe %28Ba%27Emek%29",
        "coordinates": {
            "lon": "35.444139",
            "lat": "32.604179"
        }
    },
    "739": {
        "countryID": 106,
        "name": "טירה",
        "englishName": "tira",
        "coordinates": {
            "lon": "34.956011",
            "lat": "32.233174"
        }
    },
    "740": {
        "countryID": 106,
        "name": "טירת יהודה",
        "englishName": "Tirat Yehuda",
        "coordinates": {
            "lon": "34.933563",
            "lat": "32.014538"
        }
    },
    "741": {
        "countryID": 106,
        "name": "טירת כרמל",
        "englishName": "Tirat Carmel",
        "coordinates": {
            "lon": "34.970374",
            "lat": "32.762220"
        }
    },
    "742": {
        "countryID": 106,
        "name": "טירת צבי",
        "englishName": "Tirat Tzvi",
        "coordinates": {
            "lon": "35.527745",
            "lat": "32.420562"
        }
    },
    "743": {
        "countryID": 106,
        "name": "טל-אל",
        "englishName": "Tal-El",
        "coordinates": {
            "lon": "35.178990",
            "lat": "32.925830"
        }
    },
    "744": {
        "countryID": 106,
        "name": "טל שחר",
        "englishName": "Tal Shahar",
        "coordinates": {
            "lon": "34.900985",
            "lat": "31.805527"
        }
    },
    "745": {
        "countryID": 106,
        "name": "טללים",
        "englishName": "Tlalim",
        "coordinates": {
            "lon": "34.770468",
            "lat": "30.991625"
        }
    },
    "746": {
        "countryID": 106,
        "name": "טלמון",
        "englishName": "Talmon",
        "coordinates": {
            "lon": "35.135714",
            "lat": "31.938761"
        }
    },
    "747": {
        "countryID": 106,
        "name": "טמרה",
        "englishName": "Tamra",
        "coordinates": {
            "lon": "35.194287",
            "lat": "32.853985"
        }
    },
    "751": {
        "countryID": 106,
        "name": "יאנוח-ג%27ת",
        "englishName": null,
        "coordinates": {
            "lon": "35.237480",
            "lat": "32.975239"
        }
    },
    "753": {
        "countryID": 106,
        "name": "יבנאל",
        "englishName": "Yavniel",
        "coordinates": {
            "lon": "35.504195",
            "lat": "32.705945"
        }
    },
    "754": {
        "countryID": 106,
        "name": "יבנה",
        "englishName": "Yavne",
        "coordinates": {
            "lon": "34.735942",
            "lat": "31.872370"
        }
    },
    "755": {
        "countryID": 106,
        "name": "יגור",
        "englishName": "Yagur",
        "coordinates": {
            "lon": "35.076198",
            "lat": "32.743583"
        }
    },
    "758": {
        "countryID": 106,
        "name": "יד השמונה",
        "englishName": "Yad HaShmona",
        "coordinates": {
            "lon": "35.090110",
            "lat": "31.808637"
        }
    },
    "765": {
        "countryID": 106,
        "name": "יהוד-מונוסון",
        "englishName": "Yehud",
        "coordinates": {
            "lon": "34.889389",
            "lat": "32.032131"
        }
    },
    "772": {
        "countryID": 106,
        "name": "יזרעאל",
        "englishName": "Izrael",
        "coordinates": {
            "lon": "35.319971",
            "lat": "32.561417"
        }
    },
    "773": {
        "countryID": 106,
        "name": "יחיעם",
        "englishName": "Yehi%27Am",
        "coordinates": {
            "lon": "35.219804",
            "lat": "32.996605"
        }
    },
    "776": {
        "countryID": 106,
        "name": "יכיני",
        "englishName": "Yachini",
        "coordinates": {
            "lon": "34.599671",
            "lat": "31.483474"
        }
    },
    "777": {
        "countryID": 106,
        "name": "ינוב",
        "englishName": "Yanuv",
        "coordinates": {
            "lon": "34.950802",
            "lat": "32.305697"
        }
    },
    "780": {
        "countryID": 106,
        "name": "יסודות",
        "englishName": "Yesodot",
        "coordinates": {
            "lon": "34.863316",
            "lat": "31.815311"
        }
    },
    "785": {
        "countryID": 106,
        "name": "יערה",
        "englishName": "Ya%27Ara",
        "coordinates": {
            "lon": "35.184634",
            "lat": "33.066646"
        }
    },
    "786": {
        "countryID": 106,
        "name": "יפיע",
        "englishName": "Yafi%27A",
        "coordinates": {
            "lon": "35.276325",
            "lat": "32.684153"
        }
    },
    "787": {
        "countryID": 106,
        "name": "יפית",
        "englishName": "yafit",
        "coordinates": {
            "lon": "35.474353",
            "lat": "32.060963"
        }
    },
    "788": {
        "countryID": 106,
        "name": "יפעת",
        "englishName": "Yifat",
        "coordinates": {
            "lon": "35.223881",
            "lat": "32.676174"
        }
    },
    "790": {
        "countryID": 106,
        "name": "יצהר",
        "englishName": "Yitzhar",
        "coordinates": {
            "lon": "35.240021",
            "lat": "32.167402"
        }
    },
    "791": {
        "countryID": 106,
        "name": "יציץ",
        "englishName": "Yatzitz",
        "coordinates": {
            "lon": "34.860859",
            "lat": "31.862629"
        }
    },
    "792": {
        "countryID": 106,
        "name": "יקום",
        "englishName": "Yakum",
        "coordinates": {
            "lon": "34.841400",
            "lat": "32.247927"
        }
    },
    "793": {
        "countryID": 106,
        "name": "יקיר",
        "englishName": "yakir",
        "coordinates": {
            "lon": "35.115134",
            "lat": "32.149396"
        }
    },
    "795": {
        "countryID": 106,
        "name": "יקנעם עילית",
        "englishName": "Yokneam Illit",
        "coordinates": {
            "lon": "35.095821",
            "lat": "32.646321"
        }
    },
    "796": {
        "countryID": 106,
        "name": "יקנעם %28מושבה%29",
        "englishName": "Yokne%27Am %28Moshava%29",
        "coordinates": {
            "lon": "35.114301",
            "lat": "32.654118"
        }
    },
    "797": {
        "countryID": 106,
        "name": "יראון",
        "englishName": "Yir%27On",
        "coordinates": {
            "lon": "35.452846",
            "lat": "33.077132"
        }
    },
    "798": {
        "countryID": 106,
        "name": "ירדנה",
        "englishName": "Yardena",
        "coordinates": {
            "lon": "35.563285",
            "lat": "32.562210"
        }
    },
    "799": {
        "countryID": 106,
        "name": "ירוחם",
        "englishName": "Yerucham",
        "coordinates": {
            "lon": "34.930873",
            "lat": "30.987522"
        }
    },
    "800": {
        "countryID": 106,
        "name": "ירושלים",
        "englishName": "Jerusalem",
        "coordinates": {
            "lon": "35.217731",
            "lat": "31.780251"
        }
    },
    "801": {
        "countryID": 106,
        "name": "ירחיב",
        "englishName": "Yarhiv",
        "coordinates": {
            "lon": "34.969684",
            "lat": "32.154239"
        }
    },
    "802": {
        "countryID": 106,
        "name": "ירכא",
        "englishName": "Yirka",
        "coordinates": {
            "lon": "35.198432",
            "lat": "32.953706"
        }
    },
    "803": {
        "countryID": 106,
        "name": "ירקונה",
        "englishName": "Yarkona",
        "coordinates": {
            "lon": "34.903172",
            "lat": "32.144796"
        }
    },
    "811": {
        "countryID": 106,
        "name": "כדורי",
        "englishName": "Kaduri",
        "coordinates": {
            "lon": "35.406689",
            "lat": "32.705184"
        }
    },
    "813": {
        "countryID": 106,
        "name": "כוכב השחר",
        "englishName": "Kokhav Hashahar",
        "coordinates": {
            "lon": "35.348409",
            "lat": "31.958685"
        }
    },
    "814": {
        "countryID": 106,
        "name": "כוכב יאיר",
        "englishName": "Kochav Yair",
        "coordinates": {
            "lon": "34.993384",
            "lat": "32.219140"
        }
    },
    "816": {
        "countryID": 106,
        "name": "כוכב יעקב",
        "englishName": "Kokhav Ya%27Akov",
        "coordinates": {
            "lon": "35.243136",
            "lat": "31.880565"
        }
    },
    "819": {
        "countryID": 106,
        "name": "כחל",
        "englishName": "Kahal",
        "coordinates": {
            "lon": "35.511174",
            "lat": "32.889627"
        }
    },
    "822": {
        "countryID": 106,
        "name": "כליל",
        "englishName": "Klil",
        "coordinates": {
            "lon": "35.204400",
            "lat": "32.979706"
        }
    },
    "824": {
        "countryID": 106,
        "name": "כמאנה",
        "englishName": "Kamanneh",
        "coordinates": {
            "lon": "35.342679",
            "lat": "32.909665"
        }
    },
    "827": {
        "countryID": 106,
        "name": "כנות",
        "englishName": "Kannot",
        "coordinates": {
            "lon": "34.758988",
            "lat": "31.801787"
        }
    },
    "831": {
        "countryID": 106,
        "name": "כסיפה",
        "englishName": "Kuseife",
        "coordinates": {
            "lon": "35.090253",
            "lat": "31.246050"
        }
    },
    "833": {
        "countryID": 106,
        "name": "כסרא-סמיע",
        "englishName": "Kisra-Sumei",
        "coordinates": {
            "lon": "35.304336",
            "lat": "32.968207"
        }
    },
    "834": {
        "countryID": 106,
        "name": "כעביה-טבאש-חג%27אג%27רה",
        "englishName": null,
        "coordinates": {
            "lon": "35.184487",
            "lat": "32.747821"
        }
    },
    "835": {
        "countryID": 106,
        "name": "כפר אביב",
        "englishName": "Kfar Aviv",
        "coordinates": {
            "lon": "34.723325",
            "lat": "31.829443"
        }
    },
    "841": {
        "countryID": 106,
        "name": "כפר ביל\"ו",
        "englishName": "Kfar Bilu",
        "coordinates": {
            "lon": "34.823901",
            "lat": "31.870626"
        }
    },
    "842": {
        "countryID": 106,
        "name": "כפר בלום",
        "englishName": "Kfar Blum",
        "coordinates": {
            "lon": "35.609409",
            "lat": "33.174513"
        }
    },
    "843": {
        "countryID": 106,
        "name": "כפר בן נון",
        "englishName": "Kfar Bin Nun",
        "coordinates": {
            "lon": "34.947677",
            "lat": "31.860694"
        }
    },
    "845": {
        "countryID": 106,
        "name": "כפר ברוך",
        "englishName": "Kfar Barukh",
        "coordinates": {
            "lon": "35.192549",
            "lat": "32.645808"
        }
    },
    "846": {
        "countryID": 106,
        "name": "כפר גדעון",
        "englishName": "Kfar Gidon",
        "coordinates": {
            "lon": "35.291072",
            "lat": "32.644294"
        }
    },
    "847": {
        "countryID": 106,
        "name": "כפר גלים",
        "englishName": "Kfar Galim",
        "coordinates": {
            "lon": "34.959291",
            "lat": "32.765716"
        }
    },
    "848": {
        "countryID": 106,
        "name": "כפר גליקסון",
        "englishName": "Kfar Glikson",
        "coordinates": {
            "lon": "35.004113",
            "lat": "32.506062"
        }
    },
    "851": {
        "countryID": 106,
        "name": "כפר האורנים",
        "englishName": "Kfar Ha%27Oranim",
        "coordinates": {
            "lon": "35.037136",
            "lat": "31.919093"
        }
    },
    "852": {
        "countryID": 106,
        "name": "כפר החורש",
        "englishName": "Kfar Hahoresh",
        "coordinates": {
            "lon": "35.272373",
            "lat": "32.701240"
        }
    },
    "856": {
        "countryID": 106,
        "name": "כפר הנשיא",
        "englishName": "Kfar Hanassi",
        "coordinates": {
            "lon": "35.603315",
            "lat": "32.974522"
        }
    },
    "857": {
        "countryID": 106,
        "name": "כפר הס",
        "englishName": "Kfar Hess",
        "coordinates": {
            "lon": "34.933236",
            "lat": "32.246827"
        }
    },
    "859": {
        "countryID": 106,
        "name": "כפר הרי\"ף",
        "englishName": "Kfar Harif",
        "coordinates": {
            "lon": "34.798627",
            "lat": "31.743713"
        }
    },
    "860": {
        "countryID": 106,
        "name": "כפר ויתקין",
        "englishName": "Kfar Vitkin",
        "coordinates": {
            "lon": "34.880154",
            "lat": "32.381557"
        }
    },
    "862": {
        "countryID": 106,
        "name": "כפר ורדים",
        "englishName": "Kfar Vradim",
        "coordinates": {
            "lon": "35.269143",
            "lat": "32.996272"
        }
    },
    "865": {
        "countryID": 106,
        "name": "כפר חב\"ד",
        "englishName": "Kfar Habad",
        "coordinates": {
            "lon": "34.848729",
            "lat": "31.992119"
        }
    },
    "866": {
        "countryID": 106,
        "name": "כפר חיטים",
        "englishName": "Kfar Hittim",
        "coordinates": {
            "lon": "35.502236",
            "lat": "32.800943"
        }
    },
    "868": {
        "countryID": 106,
        "name": "כפר חנניה",
        "englishName": "Kfar Hananya",
        "coordinates": {
            "lon": "35.425432",
            "lat": "32.914937"
        }
    },
    "870": {
        "countryID": 106,
        "name": "כפר חסידים ב%27",
        "englishName": "kefar hasidim b",
        "coordinates": {
            "lon": "35.092016",
            "lat": "32.750527"
        }
    },
    "871": {
        "countryID": 106,
        "name": "כפר חרוב",
        "englishName": "Kfar Haruv",
        "coordinates": {
            "lon": "35.662685",
            "lat": "32.762306"
        }
    },
    "872": {
        "countryID": 106,
        "name": "כפר טרומן",
        "englishName": "Kfar Truman",
        "coordinates": {
            "lon": "34.924541",
            "lat": "31.980457"
        }
    },
    "874": {
        "countryID": 106,
        "name": "כפר יהושע",
        "englishName": "Kfar Yehoshua",
        "coordinates": {
            "lon": "35.151859",
            "lat": "32.682096"
        }
    },
    "875": {
        "countryID": 106,
        "name": "כפר יונה",
        "englishName": "Kfar Yona",
        "coordinates": {
            "lon": "34.935582",
            "lat": "32.315384"
        }
    },
    "876": {
        "countryID": 106,
        "name": "כפר יחזקאל",
        "englishName": "Kfar Yehezkel",
        "coordinates": {
            "lon": "35.361624",
            "lat": "32.567564"
        }
    },
    "878": {
        "countryID": 106,
        "name": "כפר כמא",
        "englishName": "Kfar Kama",
        "coordinates": {
            "lon": "35.441071",
            "lat": "32.721581"
        }
    },
    "879": {
        "countryID": 106,
        "name": "כפר כנא",
        "englishName": "Kfar Kanna",
        "coordinates": {
            "lon": "35.340306",
            "lat": "32.746303"
        }
    },
    "881": {
        "countryID": 106,
        "name": "כפר מימון",
        "englishName": "Kfar Maimon",
        "coordinates": {
            "lon": "34.537196",
            "lat": "31.432210"
        }
    },
    "882": {
        "countryID": 106,
        "name": "כפר מל\"ל",
        "englishName": "Kfar Malal",
        "coordinates": {
            "lon": "34.893799",
            "lat": "32.168414"
        }
    },
    "883": {
        "countryID": 106,
        "name": "כפר מנדא",
        "englishName": "kafr manda",
        "coordinates": {
            "lon": "35.258063",
            "lat": "32.810111"
        }
    },
    "886": {
        "countryID": 106,
        "name": "כפר מצר",
        "englishName": "Kfar Metzer",
        "coordinates": {
            "lon": "35.422554",
            "lat": "32.645444"
        }
    },
    "889": {
        "countryID": 106,
        "name": "כפר נטר",
        "englishName": "Kfar Netter",
        "coordinates": {
            "lon": "34.874850",
            "lat": "32.277267"
        }
    },
    "891": {
        "countryID": 106,
        "name": "כפר סבא",
        "englishName": "Kfar Saba",
        "coordinates": {
            "lon": "34.911298",
            "lat": "32.181099"
        }
    },
    "895": {
        "countryID": 106,
        "name": "כפר עזה",
        "englishName": "Kfar Aza",
        "coordinates": {
            "lon": "34.533294",
            "lat": "31.483289"
        }
    },
    "897": {
        "countryID": 106,
        "name": "כפר פינס",
        "englishName": "Kfar Pines",
        "coordinates": {
            "lon": "35.001489",
            "lat": "32.482859"
        }
    },
    "898": {
        "countryID": 106,
        "name": "כפר קאסם",
        "englishName": "Kafr Qasim",
        "coordinates": {
            "lon": "34.971428",
            "lat": "32.114949"
        }
    },
    "900": {
        "countryID": 106,
        "name": "כפר קרע",
        "englishName": "kafr qar",
        "coordinates": {
            "lon": "35.051223",
            "lat": "32.505607"
        }
    },
    "901": {
        "countryID": 106,
        "name": "כפר ראש הנקרה",
        "englishName": "Kfar Rosh Hanikra",
        "coordinates": {
            "lon": "35.114526",
            "lat": "33.086196"
        }
    },
    "902": {
        "countryID": 106,
        "name": "זרעית %28כפר רוזנוולד%29",
        "englishName": "Kfar Rozenweld %28Zar%27It%29",
        "coordinates": {
            "lon": "35.288474",
            "lat": "33.100216"
        }
    },
    "903": {
        "countryID": 106,
        "name": "כפר רופין",
        "englishName": "Kfar Rupin",
        "coordinates": {
            "lon": "35.555456",
            "lat": "32.458180"
        }
    },
    "904": {
        "countryID": 106,
        "name": "כפר רות",
        "englishName": "Kfar Ruth",
        "coordinates": {
            "lon": "35.030031",
            "lat": "31.910648"
        }
    },
    "907": {
        "countryID": 106,
        "name": "כפר שמריהו",
        "englishName": "Kfar Shmaryahu",
        "coordinates": {
            "lon": "34.821343",
            "lat": "32.185877"
        }
    },
    "908": {
        "countryID": 106,
        "name": "כפר תבור",
        "englishName": "Kfar Tavor",
        "coordinates": {
            "lon": "35.419377",
            "lat": "32.687772"
        }
    },
    "909": {
        "countryID": 106,
        "name": "כפר תפוח",
        "englishName": "kfar tapuach",
        "coordinates": {
            "lon": "35.248347",
            "lat": "32.117666"
        }
    },
    "915": {
        "countryID": 106,
        "name": "כרם מהר\"ל",
        "englishName": "Kerem Maharal",
        "coordinates": {
            "lon": "34.989977",
            "lat": "32.645593"
        }
    },
    "917": {
        "countryID": 106,
        "name": "כרמי יוסף",
        "englishName": "Karmei Yosef",
        "coordinates": {
            "lon": "34.917879",
            "lat": "31.846058"
        }
    },
    "919": {
        "countryID": 106,
        "name": "כרמיאל",
        "englishName": "Karmiel",
        "coordinates": {
            "lon": "35.293537",
            "lat": "32.912403"
        }
    },
    "923": {
        "countryID": 106,
        "name": "לבון",
        "englishName": "Levon",
        "coordinates": {
            "lon": "35.283208",
            "lat": "32.943241"
        }
    },
    "924": {
        "countryID": 106,
        "name": "לביא",
        "englishName": "Lavie",
        "coordinates": {
            "lon": "35.440702",
            "lat": "32.786907"
        }
    },
    "925": {
        "countryID": 106,
        "name": "לבנים",
        "englishName": "Levenim",
        "coordinates": {
            "lon": "35.496785",
            "lat": "32.863975"
        }
    },
    "926": {
        "countryID": 106,
        "name": "להב",
        "englishName": "Lahav",
        "coordinates": {
            "lon": "34.868870",
            "lat": "31.379650"
        }
    },
    "927": {
        "countryID": 106,
        "name": "להבות הבשן",
        "englishName": "Lehavot Habashan",
        "coordinates": {
            "lon": "35.648072",
            "lat": "33.140538"
        }
    },
    "929": {
        "countryID": 106,
        "name": "להבים",
        "englishName": "Lehavim",
        "coordinates": {
            "lon": "34.810032",
            "lat": "31.369209"
        }
    },
    "930": {
        "countryID": 106,
        "name": "לוד",
        "englishName": "Lod",
        "coordinates": {
            "lon": "34.892856",
            "lat": "31.951860"
        }
    },
    "931": {
        "countryID": 106,
        "name": "לוזית",
        "englishName": "Luzit",
        "coordinates": {
            "lon": "34.885739",
            "lat": "31.687438"
        }
    },
    "932": {
        "countryID": 106,
        "name": "לוחמי הגיטאות",
        "englishName": "Lohamey Hageta%27Ot",
        "coordinates": {
            "lon": "35.097624",
            "lat": "32.964013"
        }
    },
    "934": {
        "countryID": 106,
        "name": "לוטן",
        "englishName": "Lotan",
        "coordinates": {
            "lon": "35.086544",
            "lat": "29.986986"
        }
    },
    "937": {
        "countryID": 106,
        "name": "לכיש",
        "englishName": "Lakhish",
        "coordinates": {
            "lon": "34.842382",
            "lat": "31.561030"
        }
    },
    "938": {
        "countryID": 106,
        "name": "לפיד",
        "englishName": "Lapid",
        "coordinates": {
            "lon": "35.033052",
            "lat": "31.917251"
        }
    },
    "940": {
        "countryID": 106,
        "name": "לקיה",
        "englishName": "Lakia",
        "coordinates": {
            "lon": "34.875856",
            "lat": "31.320966"
        }
    },
    "942": {
        "countryID": 106,
        "name": "מאיר שפיה",
        "englishName": "Meir Shfeya",
        "coordinates": {
            "lon": "34.971529",
            "lat": "32.590739"
        }
    },
    "945": {
        "countryID": 106,
        "name": "מבוא חורון",
        "englishName": "Mevo Horon",
        "coordinates": {
            "lon": "35.036152",
            "lat": "31.850125"
        }
    },
    "946": {
        "countryID": 106,
        "name": "מבוא חמה",
        "englishName": "Mevo Hama",
        "coordinates": {
            "lon": "35.656389",
            "lat": "32.738838"
        }
    },
    "947": {
        "countryID": 106,
        "name": "מבוא מודיעים",
        "englishName": "Mevo Modi%27im",
        "coordinates": {
            "lon": "34.986023",
            "lat": "31.933349"
        }
    },
    "949": {
        "countryID": 106,
        "name": "מבועים",
        "englishName": "mabu%27im",
        "coordinates": {
            "lon": "34.655322",
            "lat": "31.448760"
        }
    },
    "952": {
        "countryID": 106,
        "name": "מבשרת ציון",
        "englishName": "Mevaseret Zion",
        "coordinates": {
            "lon": "35.149234",
            "lat": "31.800500"
        }
    },
    "954": {
        "countryID": 106,
        "name": "מגאר",
        "englishName": "Maghar",
        "coordinates": {
            "lon": "35.410666",
            "lat": "32.885875"
        }
    },
    "957": {
        "countryID": 106,
        "name": "מגדל העמק",
        "englishName": "Migdal Haemek",
        "coordinates": {
            "lon": "35.241215",
            "lat": "32.679087"
        }
    },
    "959": {
        "countryID": 106,
        "name": "מגדל תפן",
        "englishName": "Migdal Teffen",
        "coordinates": {
            "lon": "35.275361",
            "lat": "32.978644"
        }
    },
    "962": {
        "countryID": 106,
        "name": "מגל",
        "englishName": "Magal",
        "coordinates": {
            "lon": "35.032961",
            "lat": "32.385428"
        }
    },
    "964": {
        "countryID": 106,
        "name": "מגן שאול",
        "englishName": "Magen Shaul",
        "coordinates": {
            "lon": "35.306805",
            "lat": "32.522067"
        }
    },
    "965": {
        "countryID": 106,
        "name": "מגשימים",
        "englishName": "Magshimim",
        "coordinates": {
            "lon": "34.898425",
            "lat": "32.045509"
        }
    },
    "966": {
        "countryID": 106,
        "name": "מדרך עוז",
        "englishName": "Midrakh Oz",
        "coordinates": {
            "lon": "35.160049",
            "lat": "32.596006"
        }
    },
    "967": {
        "countryID": 106,
        "name": "מדרשת בן גוריון",
        "englishName": "Midreshet Ben-Gurion",
        "coordinates": {
            "lon": "34.780438",
            "lat": "30.853088"
        }
    },
    "968": {
        "countryID": 106,
        "name": "מדרשת רופין",
        "englishName": "Midreshet Rupin",
        "coordinates": {
            "lon": "34.910852",
            "lat": "32.341213"
        }
    },
    "969": {
        "countryID": 106,
        "name": "מודיעין-מכבים-רעות",
        "englishName": "Modi%27in-Maccabim-Reut",
        "coordinates": {
            "lon": "35.001653",
            "lat": "31.900243"
        }
    },
    "970": {
        "countryID": 106,
        "name": "מודיעין עילית",
        "englishName": "Modi%27In Ilit",
        "coordinates": {
            "lon": "35.043539",
            "lat": "31.932696"
        }
    },
    "971": {
        "countryID": 106,
        "name": "מולדת",
        "englishName": "Moledet",
        "coordinates": {
            "lon": "35.439185",
            "lat": "32.586429"
        }
    },
    "973": {
        "countryID": 106,
        "name": "מוקייבלה",
        "englishName": "Mokayballa",
        "coordinates": {
            "lon": "35.296209",
            "lat": "32.514133"
        }
    },
    "974": {
        "countryID": 106,
        "name": "מורן",
        "englishName": "Moran",
        "coordinates": {
            "lon": "35.394891",
            "lat": "32.919855"
        }
    },
    "976": {
        "countryID": 106,
        "name": "מזור",
        "englishName": "Mazor",
        "coordinates": {
            "lon": "34.923658",
            "lat": "32.050868"
        }
    },
    "977": {
        "countryID": 106,
        "name": "מזכרת בתיה",
        "englishName": "Mazkeret Batia",
        "coordinates": {
            "lon": "34.844045",
            "lat": "31.849398"
        }
    },
    "978": {
        "countryID": 106,
        "name": "מזרע",
        "englishName": "Mizra",
        "coordinates": {
            "lon": "35.290126",
            "lat": "32.651982"
        }
    },
    "979": {
        "countryID": 106,
        "name": "מזרעה",
        "englishName": "Mazara%27A",
        "coordinates": {
            "lon": "35.098500",
            "lat": "32.984999"
        }
    },
    "980": {
        "countryID": 106,
        "name": "מחולה",
        "englishName": "Mehola",
        "coordinates": {
            "lon": "35.515029",
            "lat": "32.364943"
        }
    },
    "991": {
        "countryID": 106,
        "name": "מחניים",
        "englishName": "Mahanayim",
        "coordinates": {
            "lon": "35.570425",
            "lat": "32.988816"
        }
    },
    "994": {
        "countryID": 106,
        "name": "מטע",
        "englishName": "Mata",
        "coordinates": {
            "lon": "35.062343",
            "lat": "31.720022"
        }
    },
    "997": {
        "countryID": 106,
        "name": "מייסר",
        "englishName": "Meiser",
        "coordinates": {
            "lon": "35.042101",
            "lat": "32.444797"
        }
    },
    "998": {
        "countryID": 106,
        "name": "מיצר",
        "englishName": "Meitzar",
        "coordinates": {
            "lon": "35.737558",
            "lat": "32.768059"
        }
    },
    "1000": {
        "countryID": 106,
        "name": "מירון",
        "englishName": "Meron",
        "coordinates": {
            "lon": "35.440753",
            "lat": "32.984395"
        }
    },
    "1001": {
        "countryID": 106,
        "name": "מישר",
        "englishName": "Meishar",
        "coordinates": {
            "lon": "34.751740",
            "lat": "31.816857"
        }
    },
    "1004": {
        "countryID": 106,
        "name": "מכורה",
        "englishName": "Makura",
        "coordinates": {
            "lon": "35.423451",
            "lat": "32.164597"
        }
    },
    "1007": {
        "countryID": 106,
        "name": "מכמנים",
        "englishName": "Mikhmanim",
        "coordinates": {
            "lon": "35.326236",
            "lat": "32.906347"
        }
    },
    "1008": {
        "countryID": 106,
        "name": "מלאה",
        "englishName": "Mle%27A",
        "coordinates": {
            "lon": "35.238416",
            "lat": "32.563548"
        }
    },
    "1009": {
        "countryID": 106,
        "name": "מלילות",
        "englishName": "Mlilot",
        "coordinates": {
            "lon": "34.595030",
            "lat": "31.389038"
        }
    },
    "1012": {
        "countryID": 106,
        "name": "מנוחה",
        "englishName": "menuha",
        "coordinates": {
            "lon": "34.776499",
            "lat": "31.657287"
        }
    },
    "1013": {
        "countryID": 106,
        "name": "מנוף",
        "englishName": "Manof",
        "coordinates": {
            "lon": "35.237277",
            "lat": "32.853990"
        }
    },
    "1014": {
        "countryID": 106,
        "name": "מנות",
        "englishName": "Manot",
        "coordinates": {
            "lon": "35.194823",
            "lat": "33.037820"
        }
    },
    "1016": {
        "countryID": 106,
        "name": "מנרה",
        "englishName": "Menara",
        "coordinates": {
            "lon": "35.544169",
            "lat": "33.196488"
        }
    },
    "1018": {
        "countryID": 106,
        "name": "מסד",
        "englishName": "Massad",
        "coordinates": {
            "lon": "35.423922",
            "lat": "32.843641"
        }
    },
    "1019": {
        "countryID": 106,
        "name": "מסדה",
        "englishName": "Masada",
        "coordinates": {
            "lon": "35.599006",
            "lat": "32.682921"
        }
    },
    "1020": {
        "countryID": 106,
        "name": "מסילות",
        "englishName": "Messilot",
        "coordinates": {
            "lon": "35.476427",
            "lat": "32.496434"
        }
    },
    "1022": {
        "countryID": 106,
        "name": "מסלול",
        "englishName": "Maslul",
        "coordinates": {
            "lon": "34.589628",
            "lat": "31.325034"
        }
    },
    "1025": {
        "countryID": 106,
        "name": "מעברות",
        "englishName": "Ma%27abarot",
        "coordinates": {
            "lon": "34.905596",
            "lat": "32.364606"
        }
    },
    "1028": {
        "countryID": 106,
        "name": "מעגן מיכאל",
        "englishName": "Ma%27Agan Michael",
        "coordinates": {
            "lon": "34.915922",
            "lat": "32.556376"
        }
    },
    "1029": {
        "countryID": 106,
        "name": "מעוז חיים",
        "englishName": "Maoz Haim",
        "coordinates": {
            "lon": "35.550330",
            "lat": "32.493038"
        }
    },
    "1033": {
        "countryID": 106,
        "name": "מעין צבי",
        "englishName": "Ma%27Ayan Tzvi",
        "coordinates": {
            "lon": "34.939784",
            "lat": "32.570369"
        }
    },
    "1035": {
        "countryID": 106,
        "name": "מעלה אדומים",
        "englishName": "Ma%27Ale Adumim",
        "coordinates": {
            "lon": "35.308080",
            "lat": "31.779218"
        }
    },
    "1040": {
        "countryID": 106,
        "name": "מעלה לבונה",
        "englishName": "Ma%27Ale Levona",
        "coordinates": {
            "lon": "35.240889",
            "lat": "32.054635"
        }
    },
    "1041": {
        "countryID": 106,
        "name": "מעלה מכמש",
        "englishName": "Ma%27Ale Mikhmas",
        "coordinates": {
            "lon": "35.307392",
            "lat": "31.877453"
        }
    },
    "1042": {
        "countryID": 106,
        "name": "מעלה עירון",
        "englishName": "Ma%27Ale Iron",
        "coordinates": {
            "lon": "35.163857",
            "lat": "32.551577"
        }
    },
    "1043": {
        "countryID": 106,
        "name": "מעלה עמוס",
        "englishName": "Ma%27Ale Amos",
        "coordinates": {
            "lon": "35.229183",
            "lat": "31.596504"
        }
    },
    "1044": {
        "countryID": 106,
        "name": "מעלה שומרון",
        "englishName": "Maale Shomron",
        "coordinates": {
            "lon": "35.071175",
            "lat": "32.165593"
        }
    },
    "1046": {
        "countryID": 106,
        "name": "מענית",
        "englishName": "Ma%27anit",
        "coordinates": {
            "lon": "35.028259",
            "lat": "32.456953"
        }
    },
    "1047": {
        "countryID": 106,
        "name": "כפר מעש",
        "englishName": "Ma%27As",
        "coordinates": {
            "lon": "34.892236",
            "lat": "32.061130"
        }
    },
    "1048": {
        "countryID": 106,
        "name": "מפלסים",
        "englishName": "Miflasim",
        "coordinates": {
            "lon": "34.562870",
            "lat": "31.501963"
        }
    },
    "1049": {
        "countryID": 106,
        "name": "מצדות יהודה",
        "englishName": "Metzadot Yehuda",
        "coordinates": {
            "lon": "35.111457",
            "lat": "31.364804"
        }
    },
    "1050": {
        "countryID": 106,
        "name": "מצובה",
        "englishName": "Matzuva",
        "coordinates": {
            "lon": "35.156598",
            "lat": "33.063299"
        }
    },
    "1052": {
        "countryID": 106,
        "name": "מצפה",
        "englishName": "Mitzpe",
        "coordinates": {
            "lon": "35.510196",
            "lat": "32.790231"
        }
    },
    "1054": {
        "countryID": 106,
        "name": "מצפה יריחו",
        "englishName": "Mitzpe Yeriho",
        "coordinates": {
            "lon": "35.395021",
            "lat": "31.815937"
        }
    },
    "1055": {
        "countryID": 106,
        "name": "מצפה נטופה",
        "englishName": "Mitzpe Netofa",
        "coordinates": {
            "lon": "35.384392",
            "lat": "32.803170"
        }
    },
    "1056": {
        "countryID": 106,
        "name": "מצפה רמון",
        "englishName": "Mizpe Ramon",
        "coordinates": {
            "lon": "34.800462",
            "lat": "30.612969"
        }
    },
    "1058": {
        "countryID": 106,
        "name": "מצר",
        "englishName": "Metzer",
        "coordinates": {
            "lon": "35.047670",
            "lat": "32.441104"
        }
    },
    "1065": {
        "countryID": 106,
        "name": "משאבי שדה",
        "englishName": "Mash%27Abei Sade",
        "coordinates": {
            "lon": "34.786598",
            "lat": "31.003371"
        }
    },
    "1067": {
        "countryID": 106,
        "name": "משגב דב",
        "englishName": "Misgav Dov",
        "coordinates": {
            "lon": "34.739225",
            "lat": "31.819474"
        }
    },
    "1070": {
        "countryID": 106,
        "name": "משואה",
        "englishName": "Masua",
        "coordinates": {
            "lon": "35.491195",
            "lat": "32.112966"
        }
    },
    "1071": {
        "countryID": 106,
        "name": "משואות יצחק",
        "englishName": "Masu%27Ot Yitzhak",
        "coordinates": {
            "lon": "34.688774",
            "lat": "31.703299"
        }
    },
    "1073": {
        "countryID": 106,
        "name": "משמר דוד",
        "englishName": "Mishmar David",
        "coordinates": {
            "lon": "34.900660",
            "lat": "31.822453"
        }
    },
    "1076": {
        "countryID": 106,
        "name": "משמר העמק",
        "englishName": "Mishmar HaEmek",
        "coordinates": {
            "lon": "35.141989",
            "lat": "32.610664"
        }
    },
    "1077": {
        "countryID": 106,
        "name": "משמר השבעה",
        "englishName": "Mishmar HaShiva",
        "coordinates": {
            "lon": "34.823577",
            "lat": "32.007782"
        }
    },
    "1079": {
        "countryID": 106,
        "name": "משמרות",
        "englishName": "Mishmarot",
        "coordinates": {
            "lon": "34.985557",
            "lat": "32.488549"
        }
    },
    "1080": {
        "countryID": 106,
        "name": "משמרת",
        "englishName": "Mishmeret",
        "coordinates": {
            "lon": "34.918830",
            "lat": "32.226994"
        }
    },
    "1081": {
        "countryID": 106,
        "name": "משען",
        "englishName": "Mash%27En",
        "coordinates": {
            "lon": "34.623691",
            "lat": "31.657892"
        }
    },
    "1082": {
        "countryID": 106,
        "name": "מתן",
        "englishName": "matan",
        "coordinates": {
            "lon": "34.972992",
            "lat": "32.158571"
        }
    },
    "1086": {
        "countryID": 106,
        "name": "נאות הכיכר",
        "englishName": "Ne%27Ot Hakikar",
        "coordinates": {
            "lon": "35.378700",
            "lat": "30.934406"
        }
    },
    "1087": {
        "countryID": 106,
        "name": "נאות מרדכי",
        "englishName": "Ne%27Ot Mordechai",
        "coordinates": {
            "lon": "35.597659",
            "lat": "33.159828"
        }
    },
    "1089": {
        "countryID": 106,
        "name": "נבטים",
        "englishName": "Nevatim",
        "coordinates": {
            "lon": "34.881600",
            "lat": "31.223629"
        }
    },
    "1091": {
        "countryID": 106,
        "name": "נהורה",
        "englishName": "nehora",
        "coordinates": {
            "lon": "34.704455",
            "lat": "31.622420"
        }
    },
    "1092": {
        "countryID": 106,
        "name": "נהלל",
        "englishName": "Nahalal",
        "coordinates": {
            "lon": "35.196697",
            "lat": "32.690331"
        }
    },
    "1093": {
        "countryID": 106,
        "name": "נהריה",
        "englishName": "Nahariya",
        "coordinates": {
            "lon": "35.098284",
            "lat": "33.005853"
        }
    },
    "1095": {
        "countryID": 106,
        "name": "נוגה",
        "englishName": "Noga",
        "coordinates": {
            "lon": "34.695650",
            "lat": "31.624768"
        }
    },
    "1099": {
        "countryID": 106,
        "name": "נווה אילן",
        "englishName": "Neve Ilan",
        "coordinates": {
            "lon": "35.080791",
            "lat": "31.807171"
        }
    },
    "1103": {
        "countryID": 106,
        "name": "נווה דניאל",
        "englishName": "neve daniel",
        "coordinates": {
            "lon": "35.143118",
            "lat": "31.677364"
        }
    },
    "1105": {
        "countryID": 106,
        "name": "נווה זוהר",
        "englishName": "Neve Zohar",
        "coordinates": {
            "lon": "35.364830",
            "lat": "31.152620"
        }
    },
    "1108": {
        "countryID": 106,
        "name": "נווה ים",
        "englishName": "Neve Yam",
        "coordinates": {
            "lon": "34.929809",
            "lat": "32.679972"
        }
    },
    "1109": {
        "countryID": 106,
        "name": "נווה ימין",
        "englishName": "Neve Yamin",
        "coordinates": {
            "lon": "34.939986",
            "lat": "32.172203"
        }
    },
    "1111": {
        "countryID": 106,
        "name": "נווה מבטח",
        "englishName": "neve mivtah",
        "coordinates": {
            "lon": "34.739834",
            "lat": "31.804334"
        }
    },
    "1113": {
        "countryID": 106,
        "name": "נווה שלום",
        "englishName": "Neve Shalom",
        "coordinates": {
            "lon": "34.978490",
            "lat": "31.816993"
        }
    },
    "1114": {
        "countryID": 106,
        "name": "נועם",
        "englishName": "Noam",
        "coordinates": {
            "lon": "34.789479",
            "lat": "31.567889"
        }
    },
    "1116": {
        "countryID": 106,
        "name": "נופים",
        "englishName": "Nofim",
        "coordinates": {
            "lon": "35.100989",
            "lat": "32.153520"
        }
    },
    "1117": {
        "countryID": 106,
        "name": "נופית",
        "englishName": "Nofit",
        "coordinates": {
            "lon": "35.146796",
            "lat": "32.758382"
        }
    },
    "1118": {
        "countryID": 106,
        "name": "נופך",
        "englishName": "nofach",
        "coordinates": {
            "lon": "34.920363",
            "lat": "32.043618"
        }
    },
    "1121": {
        "countryID": 106,
        "name": "נורית",
        "englishName": "Nurit",
        "coordinates": {
            "lon": "35.355199",
            "lat": "32.543304"
        }
    },
    "1130": {
        "countryID": 106,
        "name": "נחל עוז",
        "englishName": "Nahal Oz",
        "coordinates": {
            "lon": "34.499415",
            "lat": "31.472129"
        }
    },
    "1131": {
        "countryID": 106,
        "name": "נחלה",
        "englishName": "Nahala",
        "coordinates": {
            "lon": "34.793434",
            "lat": "31.658877"
        }
    },
    "1132": {
        "countryID": 106,
        "name": "נחליאל",
        "englishName": "Nahliel",
        "coordinates": {
            "lon": "35.139590",
            "lat": "31.974324"
        }
    },
    "1133": {
        "countryID": 106,
        "name": "נחלים",
        "englishName": "Nehalim",
        "coordinates": {
            "lon": "34.913202",
            "lat": "32.060253"
        }
    },
    "1134": {
        "countryID": 106,
        "name": "נחם",
        "englishName": "naham",
        "coordinates": {
            "lon": "35.002572",
            "lat": "31.765962"
        }
    },
    "1135": {
        "countryID": 106,
        "name": "נחף",
        "englishName": "Nahf",
        "coordinates": {
            "lon": "35.317612",
            "lat": "32.933344"
        }
    },
    "1136": {
        "countryID": 106,
        "name": "נחשולים",
        "englishName": "Nahsholim",
        "coordinates": {
            "lon": "34.921661",
            "lat": "32.612708"
        }
    },
    "1137": {
        "countryID": 106,
        "name": "נחשון",
        "englishName": "Nahshon",
        "coordinates": {
            "lon": "34.957132",
            "lat": "31.831752"
        }
    },
    "1138": {
        "countryID": 106,
        "name": "נחשונים",
        "englishName": "Nahshonim",
        "coordinates": {
            "lon": "34.949710",
            "lat": "32.061481"
        }
    },
    "1141": {
        "countryID": 106,
        "name": "נטעים",
        "englishName": "Neta%27Im",
        "coordinates": {
            "lon": "34.771708",
            "lat": "31.946954"
        }
    },
    "1142": {
        "countryID": 106,
        "name": "נטף",
        "englishName": "Nataf",
        "coordinates": {
            "lon": "35.067659",
            "lat": "31.831350"
        }
    },
    "1144": {
        "countryID": 106,
        "name": "ניל\"י",
        "englishName": "Nili",
        "coordinates": {
            "lon": "35.046485",
            "lat": "31.963222"
        }
    },
    "1145": {
        "countryID": 106,
        "name": "ניצן",
        "englishName": "Nitzan",
        "coordinates": {
            "lon": "34.633997",
            "lat": "31.737502"
        }
    },
    "1148": {
        "countryID": 106,
        "name": "ניצני עוז",
        "englishName": "Nitzanei Oz",
        "coordinates": {
            "lon": "35.003200",
            "lat": "32.306357"
        }
    },
    "1150": {
        "countryID": 106,
        "name": "ניר אליהו",
        "englishName": "Nir Eliahu",
        "coordinates": {
            "lon": "34.949557",
            "lat": "32.196486"
        }
    },
    "1152": {
        "countryID": 106,
        "name": "ניר גלים",
        "englishName": "Nir Galim",
        "coordinates": {
            "lon": "34.681532",
            "lat": "31.823736"
        }
    },
    "1153": {
        "countryID": 106,
        "name": "ניר דוד %28תל עמל%29",
        "englishName": "Ka%27abiyye-Tabbash-Hajajre",
        "coordinates": {
            "lon": "35.457797",
            "lat": "32.504942"
        }
    },
    "1154": {
        "countryID": 106,
        "name": "ניר ח\"ן",
        "englishName": "Nir Hen",
        "coordinates": {
            "lon": "34.715420",
            "lat": "31.608449"
        }
    },
    "1155": {
        "countryID": 106,
        "name": "ניר יפה",
        "englishName": "Nir Yafe",
        "coordinates": {
            "lon": "35.244141",
            "lat": "32.572682"
        }
    },
    "1157": {
        "countryID": 106,
        "name": "ניר ישראל",
        "englishName": "Nir Israel",
        "coordinates": {
            "lon": "34.636239",
            "lat": "31.686480"
        }
    },
    "1158": {
        "countryID": 106,
        "name": "ניר משה",
        "englishName": "Nir Moshe",
        "coordinates": {
            "lon": "34.631303",
            "lat": "31.478374"
        }
    },
    "1161": {
        "countryID": 106,
        "name": "ניר עציון",
        "englishName": "Nir Etzion",
        "coordinates": {
            "lon": "34.990051",
            "lat": "32.699407"
        }
    },
    "1163": {
        "countryID": 106,
        "name": "ניר צבי",
        "englishName": "Nir Tz%27vi",
        "coordinates": {
            "lon": "34.858378",
            "lat": "31.958354"
        }
    },
    "1165": {
        "countryID": 106,
        "name": "נירית",
        "englishName": "nirit",
        "coordinates": {
            "lon": "34.985231",
            "lat": "32.146308"
        }
    },
    "1168": {
        "countryID": 106,
        "name": "נס עמים",
        "englishName": "Nes Amim",
        "coordinates": {
            "lon": "35.121273",
            "lat": "32.965608"
        }
    },
    "1169": {
        "countryID": 106,
        "name": "נס ציונה",
        "englishName": "Nes Ziona",
        "coordinates": {
            "lon": "34.795177",
            "lat": "31.926858"
        }
    },
    "1171": {
        "countryID": 106,
        "name": "נעלה",
        "englishName": "Na%27Ale",
        "coordinates": {
            "lon": "35.064990",
            "lat": "31.962663"
        }
    },
    "1176": {
        "countryID": 106,
        "name": "נצרת",
        "englishName": "Nazerath",
        "coordinates": {
            "lon": "35.294311",
            "lat": "32.702633"
        }
    },
    "1177": {
        "countryID": 106,
        "name": "נוף הגליל",
        "englishName": "Nazerat Illit",
        "coordinates": {
            "lon": "35.323906",
            "lat": "32.705718"
        }
    },